{"type":"FeatureCollection","features":[{"type":"Feature","properties":{"FID":1,"OBJECTID":1,"NOM":"IRONBEN 2017 course à pied et duathlon","LIEU":"Promenade et Parc Saint-Maurice","MOIS":"MAI","TYPE":"MAI : Sports et loisirs","DATE1":"20 mai 2017","Annee":2017},"geometry":{"type":"Point","coordinates":[-72.7435871982515,46.53743378933475]}},{"type":"Feature","properties":{"FID":2,"OBJECTID":2,"NOM":"Foire en ville","LIEU":"5e Avenue, Shawinigan-Sud","MOIS":"JUIN","TYPE":"JUIN : Fêtes et festivals","DATE1":"10-11 juin 2017","Annee":2017},"geometry":{"type":"Point","coordinates":[-72.75044748577263,46.52362894776201]}},{"type":"Feature","properties":{"FID":3,"OBJECTID":3,"NOM":"Série du diable","LIEU":"Place des Canotiers et Promenade du Saint-Maurice","MOIS":"AOÛT","TYPE":"AOÛT : Sports et loisirs","DATE1":"6 et 20 juin, 4 et 18 juillet, 8 et 22 août 2017","Annee":2017},"geometry":{"type":"Point","coordinates":[-72.75361885484166,46.53991623835687]}},{"type":"Feature","properties":{"FID":4,"OBJECTID":12,"NOM":"Fête de la pêche","LIEU":"Place des Canotiers et Rivière Saint-Maurice secteur Shawinigan","MOIS":"JUIN","TYPE":"JUIN : Fêtes et festivals","DATE1":"3-4 juin 2017","Annee":2017},"geometry":{"type":"Point","coordinates":[-72.75474009622515,46.54051292698238]}},{"type":"Feature","properties":{"FID":5,"OBJECTID":13,"NOM":"Relais pour la vie","LIEU":"Parc Rivière-Grand-Mère","MOIS":"JUIN","TYPE":"JUIN : Vie communautaire","DATE1":"3 juin 2017","Annee":2017},"geometry":{"type":"Point","coordinates":[-72.6961345221496,46.61739173052579]}},{"type":"Feature","properties":{"FID":6,"OBJECTID":14,"NOM":"Randonnée du Maire","LIEU":"Station de plein-air Val-Mauricie","MOIS":"JUIN","TYPE":"JUIN : Sports et loisirs","DATE1":"3 juin 2017","Annee":2017},"geometry":{"type":"Point","coordinates":[-72.76028283317547,46.52154746921874]}},{"type":"Feature","properties":{"FID":7,"OBJECTID":180,"NOM":"Les beaux dimanches tout en musique","LIEU":"Parc Saint-Jean-Baptiste","MOIS":"JUIN","TYPE":"JUIN : Arts et culture","DATE1":"Tous les dimanches (21 mai au 03 septembre 2017), de 19h à 22h","Annee":2017},"geometry":{"type":"Point","coordinates":[-72.69947760903273,46.60923026272312]}},{"type":"Feature","properties":{"FID":8,"OBJECTID":181,"NOM":"Les beaux dimanches tout en musique","LIEU":"Parc Saint-Jean-Baptiste","MOIS":"JUILLET","TYPE":"JUILLET : Arts et culture","DATE1":"Tous les dimanches (21 mai au 03 septembre 2017), de 19h à 22h","Annee":2017},"geometry":{"type":"Point","coordinates":[-72.69947760903273,46.60923026272312]}},{"type":"Feature","properties":{"FID":9,"OBJECTID":182,"NOM":"Les beaux dimanches tout en musique","LIEU":"Parc Saint-Jean-Baptiste","MOIS":"AOÛT","TYPE":"AOÛT : Arts et culture","DATE1":"Tous les dimanches (21 mai au 03 septembre 2017), de 19h à 22h","Annee":2017},"geometry":{"type":"Point","coordinates":[-72.69947760903273,46.60923026272312]}},{"type":"Feature","properties":{"FID":10,"OBJECTID":183,"NOM":"Les beaux dimanches tout en musique","LIEU":"Parc Saint-Jean-Baptiste","MOIS":"SEPTEMBRE","TYPE":"SEPTEMBRE : Arts et culture","DATE1":"Tous les dimanches (21 mai au 03 septembre 2017), de 19h à 22h","Annee":2017},"geometry":{"type":"Point","coordinates":[-72.69947760903273,46.60923026272312]}},{"type":"Feature","properties":{"FID":11,"OBJECTID":18,"NOM":"Rendez-vous de la Promenade","LIEU":"Promenade du Capitaine-Jos-Veilleux","MOIS":"JUIN","TYPE":"JUIN : Arts et culture","DATE1":"Du jeudi au samedi de 19h à 22h (1 juin au 2 septembre 2017)","Annee":2017},"geometry":{"type":"Point","coordinates":[-72.75286997022577,46.52931308310142]}},{"type":"Feature","properties":{"FID":12,"OBJECTID":27,"NOM":"Fête nationale de la St-Jean-Baptiste","LIEU":"Parc de la Rivière-Grand-Mère","MOIS":"JUIN","TYPE":"JUIN : Fêtes et festivals","DATE1":"24 juin 2017","Annee":2017},"geometry":{"type":"Point","coordinates":[-72.69610877960099,46.61710686017454]}},{"type":"Feature","properties":{"FID":13,"OBJECTID":28,"NOM":"Évenement Auto-Expo","LIEU":"Parc Saint-Jean-Baptiste","MOIS":"JUIN","TYPE":"JUIN : Fêtes et festivals","DATE1":"24 Juin 2017","Annee":2017},"geometry":{"type":"Point","coordinates":[-72.6997030856837,46.60901758672189]}},{"type":"Feature","properties":{"FID":14,"OBJECTID":184,"NOM":"Rendez-vous de la Promenade","LIEU":"Promenade du Capitaine-Jos-Veilleux","MOIS":"JUILLET","TYPE":"JUILLET : Arts et culture","DATE1":"Du jeudi au samedi de 19h à 22h (1 juin au 2 septembre 2017)","Annee":2017},"geometry":{"type":"Point","coordinates":[-72.75286997022577,46.52931308310142]}},{"type":"Feature","properties":{"FID":15,"OBJECTID":185,"NOM":"Rendez-vous de la Promenade","LIEU":"Promenade du Capitaine-Jos-Veilleux","MOIS":"AOÛT","TYPE":"AOÛT : Arts et culture","DATE1":"Du jeudi au samedi de 19h à 22h (1 juin au 2 septembre 2017)","Annee":2017},"geometry":{"type":"Point","coordinates":[-72.75286997022577,46.52931308310142]}},{"type":"Feature","properties":{"FID":16,"OBJECTID":186,"NOM":"Série du diable","LIEU":"Place des Canotiers et Promenade du Saint-Maurice","MOIS":"JUILLET","TYPE":"JUILLET : Sports et loisirs","DATE1":"6 et 20 juin, 4 et 18 juillet, 8 et 22 août 2017","Annee":2017},"geometry":{"type":"Point","coordinates":[-72.75361885484166,46.53991623835687]}},{"type":"Feature","properties":{"FID":17,"OBJECTID":187,"NOM":"Série du diable","LIEU":"Place des Canotiers et Promenade du Saint-Maurice","MOIS":"JUIN","TYPE":"JUIN : Sports et loisirs","DATE1":"6 et 20 juin, 4 et 18 juillet, 8 et 22 août 2017","Annee":2017},"geometry":{"type":"Point","coordinates":[-72.75361885484166,46.53991623835687]}},{"type":"Feature","properties":{"FID":18,"OBJECTID":35,"NOM":"Festival bateaux-dragons et Finale régionale Jeux du Québec","LIEU":"Boulevard du Capitaine-Jos-Veilleux","MOIS":"JUILLET","TYPE":"JUILLET : Fêtes et festivals","DATE1":"1er juillet 2017","Annee":2017},"geometry":{"type":"Point","coordinates":[-72.75248853943634,46.52929428605991]}},{"type":"Feature","properties":{"FID":19,"OBJECTID":41,"NOM":"Compétition natation en eau libre et Finale régionale Jeux du Québec","LIEU":"Boulevard du Capitaine-Jos-Veilleux","MOIS":"JUILLET","TYPE":"JUILLET : Sports et loisirs","DATE1":"22 juillet 2017","Annee":2017},"geometry":{"type":"Point","coordinates":[-72.75216222610548,46.52925846440361]}},{"type":"Feature","properties":{"FID":20,"OBJECTID":45,"NOM":"Festival énergie country de la Mauricie","LIEU":"Stationnement Amphithéâtre municipal","MOIS":"AOÛT","TYPE":"AOÛT : Fêtes et festivals","DATE1":"2 au 6 août 2017","Annee":2017},"geometry":{"type":"Point","coordinates":[-72.74425977199631,46.54622446096621]}},{"type":"Feature","properties":{"FID":21,"OBJECTID":206,"NOM":"Classique hivernale Broadway","LIEU":"Ave Broadway et Promenade St-Maurice","MOIS":"FÉVRIER","TYPE":"FÉVRIER : Sports et loisirs","DATE1":"29 janvier 2017","Annee":2017},"geometry":{"type":"Point","coordinates":[-72.74384068588103,46.54118690220827]}},{"type":"Feature","properties":{"FID":22,"OBJECTID":280,"NOM":"Fête familiale par les églises évangéliques","LIEU":"Parc Saint-Maurice","MOIS":"AOÛT","TYPE":"AOÛT : Vie communautaire","DATE1":"27 août 2017","Annee":2017},"geometry":{"type":"Point","coordinates":[-72.69933628324502,46.60910158311242]}},{"type":"Feature","properties":{"FID":23,"OBJECTID":281,"NOM":"5K Foam Fest","LIEU":"Vallée-du-Parc","MOIS":"AOÛT","TYPE":"AOÛT : Sports et loisirs","DATE1":"26 août 2017","Annee":2017},"geometry":{"type":"Point","coordinates":[-72.79735635886637,46.616617617750265]}},{"type":"Feature","properties":{"FID":24,"OBJECTID":50,"NOM":"Rendez-vous des Peintres","LIEU":"Sainte-Flore (Grand-Mère)","MOIS":"AOÛT","TYPE":"AOÛT : Arts et culture","DATE1":"11 au -13 août 2017","Annee":2017},"geometry":{"type":"Point","coordinates":[-72.7365201132603,46.615010781899535]}},{"type":"Feature","properties":{"FID":25,"OBJECTID":52,"NOM":"Championnats  provinciaux en canoë-kayak M16 - M17 - M19 - open et maître","LIEU":"Boulevard du Capitaine-Jos-Veilleux","MOIS":"JUILLET","TYPE":"JUILLET : Sports et loisirs","DATE1":"28 au 30 juillet 2017","Annee":2017},"geometry":{"type":"Point","coordinates":[-72.75316119236804,46.52934664123684]}},{"type":"Feature","properties":{"FID":26,"OBJECTID":61,"NOM":"Classique internationale de canots de la Mauricie","LIEU":"Promenade du Saint-Maurice","MOIS":"SEPTEMBRE","TYPE":"SEPTEMBRE : Sports et loisirs","DATE1":"2 au 4 septembre 2017","Annee":2017},"geometry":{"type":"Point","coordinates":[-72.7483207841113,46.53647601011764]}},{"type":"Feature","properties":{"FID":27,"OBJECTID":62,"NOM":"Le défi des coeurs Clinique dentaire Descôteaux","LIEU":"Collège Shawinigan","MOIS":"SEPTEMBRE","TYPE":"SEPTEMBRE : Sports et loisirs","DATE1":"9 septembre 2017","Annee":2017},"geometry":{"type":"Point","coordinates":[-72.75236699909057,46.56420315674957]}},{"type":"Feature","properties":{"FID":28,"OBJECTID":63,"NOM":"Les défis du Parc national de la Mauricie de Shawinigan","LIEU":"Parc de la Mauricie, Centre-Ville, secteur Shawinigan","MOIS":"SEPTEMBRE","TYPE":"SEPTEMBRE : Sports et loisirs","DATE1":"22 au 24 septembre 2017","Annee":2017},"geometry":{"type":"Point","coordinates":[-72.781609883674,46.744550841403516]}},{"type":"Feature","properties":{"FID":29,"OBJECTID":69,"NOM":"Expo trains et modèles réduits","LIEU":"Centre communautaire de Shawinigan","MOIS":"OCTOBRE","TYPE":"OCTOBRE : Arts et culture","DATE1":"14 et 15 octobre 2017","Annee":2017},"geometry":{"type":"Point","coordinates":[-72.74569900796752,46.53889830546561]}},{"type":"Feature","properties":{"FID":30,"OBJECTID":70,"NOM":"Festival de l'orignal","LIEU":"Aréna Émile-Bédard","MOIS":"OCTOBRE","TYPE":"OCTOBRE : Fêtes et festivals","DATE1":"27 octobre 2017","Annee":2017},"geometry":{"type":"Point","coordinates":[-72.65495321979103,46.62499954841499]}},{"type":"Feature","properties":{"FID":31,"OBJECTID":238,"NOM":"Festival interglacial de la BD et des univers givrés","LIEU":"Place du Marché","MOIS":"FÉVRIER","TYPE":"FÉVRIER : Arts et culture","DATE1":"3 au 5 février 2017","Annee":2017},"geometry":{"type":"Point","coordinates":[-72.74927554891363,46.54079784141124]}},{"type":"Feature","properties":{"FID":32,"OBJECTID":76,"NOM":"Tournoi pee-wee Shawinigan","LIEU":"Aréna Grand-Mère","MOIS":"NOVEMBRE","TYPE":"NOVEMBRE : Sports et loisirs","DATE1":"20 novembre au 3 décembre 2017","Annee":2017},"geometry":{"type":"Point","coordinates":[-72.68929698893817,46.61206867396514]}},{"type":"Feature","properties":{"FID":33,"OBJECTID":83,"NOM":"Festival de pêche Saint-Jean-des-Piles","LIEU":"Centre municipal","MOIS":"JUIN","TYPE":"JUIN : Fêtes et festivals","DATE1":"1er au 4 juin 2017","Annee":2017},"geometry":{"type":"Point","coordinates":[-72.74047944857112,46.69206796082734]}},{"type":"Feature","properties":{"FID":34,"OBJECTID":84,"NOM":"Les beaux dimanches tout en musique","LIEU":"Parc Saint-Jean-Baptiste","MOIS":"MAI","TYPE":"MAI : Arts et culture","DATE1":"Tous les dimanches (21 mai au 03 septembre 2017), de 19h à 22h","Annee":2017},"geometry":{"type":"Point","coordinates":[-72.69947760903273,46.60923026272312]}},{"type":"Feature","properties":{"FID":35,"OBJECTID":90,"NOM":"Je bouge avec mon doc","LIEU":"Promenade Saint-Maurice , Parcs Saint-Maurice, Centre Gervais Auto","MOIS":"MAI","TYPE":"MAI : Sports et loisirs","DATE1":"27 mai 2017","Annee":2017},"geometry":{"type":"Point","coordinates":[-72.74654651430953,46.5367655617636]}},{"type":"Feature","properties":{"FID":36,"OBJECTID":94,"NOM":"Marathon collectif des élèves du 3e cycle du Shawinigan High School","LIEU":"Piste cyclable entre Broadway et rue des Érables","MOIS":"MAI","TYPE":"MAI : Sports et loisirs","DATE1":"5 mai 2017","Annee":2017},"geometry":{"type":"Point","coordinates":[-72.74372699044294,46.54630468126116]}},{"type":"Feature","properties":{"FID":37,"OBJECTID":96,"NOM":"Spectacle annuel de patinage \"Les Tourne-Sol\"","LIEU":"Aréna Gilles-Bourassa","MOIS":"AVRIL","TYPE":"AVRIL : Sports et loisirs","DATE1":"8 avril 2017","Annee":2017},"geometry":{"type":"Point","coordinates":[-72.75549937010581,46.5168506578792]}},{"type":"Feature","properties":{"FID":38,"OBJECTID":97,"NOM":"Spectacle annuel de patinage artistique Grand-Mère","LIEU":"Aréna Grand-Mère","MOIS":"AVRIL","TYPE":"AVRIL : Sports et loisirs","DATE1":"9 avril 2017","Annee":2017},"geometry":{"type":"Point","coordinates":[-72.68957690788991,46.61214442141748]}},{"type":"Feature","properties":{"FID":39,"OBJECTID":188,"NOM":"Tournoi provincial novice bantam de Saint-Georges-de-Champlain","LIEU":"Aréna Émile-Bédard","MOIS":"JANVIER","TYPE":"JANVIER : Sports et loisirs","DATE1":"16 au 29 janvier 2017","Annee":2017},"geometry":{"type":"Point","coordinates":[-72.65514782690856,46.624996279530855]}},{"type":"Feature","properties":{"FID":40,"OBJECTID":237,"NOM":"Championnat québécois Ultimate Frisbee","LIEU":"Complexe sportif","MOIS":"JUILLET","TYPE":"JUILLET : Sports et loisirs","DATE1":"15 et 16 juillet 2017","Annee":2017},"geometry":{"type":"Point","coordinates":[-72.73464165271751,46.57722160814094]}},{"type":"Feature","properties":{"FID":41,"OBJECTID":105,"NOM":"Défi ski 12h Leucan","LIEU":"Station de ski Vallée-du-Parc","MOIS":"MARS","TYPE":"MARS : Sports et loisirs","DATE1":"18 mars 2017","Annee":2017},"geometry":{"type":"Point","coordinates":[-72.79681970432256,46.61582368704384]}},{"type":"Feature","properties":{"FID":42,"OBJECTID":106,"NOM":"Défis nordiques du Parc national","LIEU":"Parc national du Canada de la Mauricie","MOIS":"FÉVRIER","TYPE":"FÉVRIER : Sports et loisirs","DATE1":"15 au 18 février 2017","Annee":2017},"geometry":{"type":"Point","coordinates":[-72.78443115702649,46.74776500921429]}},{"type":"Feature","properties":{"FID":43,"OBJECTID":107,"NOM":"Festi-neige de Shawinigan","LIEU":"Plage idéale","MOIS":"FÉVRIER","TYPE":"FÉVRIER : Fêtes et festivals","DATE1":"24 au 26 février 2017","Annee":2017},"geometry":{"type":"Point","coordinates":[-72.62672240487694,46.609636147780144]}},{"type":"Feature","properties":{"FID":44,"OBJECTID":112,"NOM":"Tournoi novice de Shawinigan-Sud","LIEU":"Aréna Gilles-Bourassa","MOIS":"FÉVRIER","TYPE":"FÉVRIER : Sports et loisirs","DATE1":"1er au 12 février 2017","Annee":2017},"geometry":{"type":"Point","coordinates":[-72.7552547192017,46.51693533796377]}},{"type":"Feature","properties":{"FID":45,"OBJECTID":191,"NOM":"Championnat provincial de cheerleading","LIEU":"Amphithéâtre municipal","MOIS":"MARS","TYPE":"MARS : Sports et loisirs","DATE1":"10 au 12 mars 2017","Annee":2017},"geometry":{"type":"Point","coordinates":[-72.74494692539102,46.547742694316604]}},{"type":"Feature","properties":{"FID":46,"OBJECTID":116,"NOM":"Gala Sport Hommage Desjardins","LIEU":"Espace Shawinigan","MOIS":"JANVIER","TYPE":"JANVIER : Arts et culture","DATE1":"21 janvier 2017","Annee":2017},"geometry":{"type":"Point","coordinates":[-72.76384604350989,46.539537408698266]}},{"type":"Feature","properties":{"FID":47,"OBJECTID":117,"NOM":"Tournoi midget junior optimiste de Shawinigan-Sud","LIEU":"Amphithéâtre municipal","MOIS":"JANVIER","TYPE":"JANVIER : Sports et loisirs","DATE1":"26 au 28 janvier 2017","Annee":2017},"geometry":{"type":"Point","coordinates":[-72.7445336989881,46.54785109467637]}},{"type":"Feature","properties":{"FID":48,"OBJECTID":118,"NOM":"Tournoi midget junior optimiste de Shawinigan-Sud","LIEU":"Aréna Gilles-Bourassa","MOIS":"JANVIER","TYPE":"JANVIER : Sports et loisirs","DATE1":"18 au 29 janvier 2017","Annee":2017},"geometry":{"type":"Point","coordinates":[-72.7554992185061,46.51666576316119]}},{"type":"Feature","properties":{"FID":49,"OBJECTID":119,"NOM":"Tournoi atome Desjardins","LIEU":"Amphithéâtre municipal","MOIS":"JANVIER","TYPE":"JANVIER : Sports et loisirs","DATE1":"10 au 22 janvier 2017","Annee":2017},"geometry":{"type":"Point","coordinates":[-72.74475446653223,46.5476766574581]}},{"type":"Feature","properties":{"FID":50,"OBJECTID":198,"NOM":"Randonnée cycliste - Levée de fonds pour la Fondation du CSSS de l'Énergie","LIEU":"Parc Saint-Maurice","MOIS":"JUIN","TYPE":"JUIN : Sports et loisirs","DATE1":"10-11 juin 2017","Annee":2017},"geometry":{"type":"Point","coordinates":[-72.74160759150537,46.53808432767501]}},{"type":"Feature","properties":{"FID":51,"OBJECTID":149,"NOM":"Fête familiale par les églises évangéliques","LIEU":"Parc Saint-Maurice","MOIS":"AOÛT","TYPE":"AOÛT : Vie communautaire","DATE1":"13 août 2017","Annee":2017},"geometry":{"type":"Point","coordinates":[-72.74280178844829,46.53907852437977]}},{"type":"Feature","properties":{"FID":52,"OBJECTID":203,"NOM":"Tournoi de hockey entreprises regroupées","LIEU":"Aréna Grand-Mère","MOIS":"MARS","TYPE":"MARS : Sports et loisirs","DATE1":"23 au 26 mars 2017","Annee":2017},"geometry":{"type":"Point","coordinates":[-72.68929698893817,46.61206867396514]}},{"type":"Feature","properties":{"FID":53,"OBJECTID":168,"NOM":"Festival de la solidarité musicale Widewood","LIEU":"1320, 95e Rue, secteur Saint-Georges-de-Champlain","MOIS":"AOÛT","TYPE":"AOÛT : Fêtes et festivals","DATE1":"3 au 6 août 2017","Annee":2017},"geometry":{"type":"Point","coordinates":[-72.64169355033063,46.645921416029985]}},{"type":"Feature","properties":{"FID":54,"OBJECTID":169,"NOM":"Soirée des Brasseurs","LIEU":"Stationnement arrière du bureau de poste","MOIS":"AOÛT","TYPE":"AOÛT : Arts et culture","DATE1":"12 août 2017","Annee":2017},"geometry":{"type":"Point","coordinates":[-72.75291954092047,46.53937798193174]}},{"type":"Feature","properties":{"FID":55,"OBJECTID":219,"NOM":"Espace Show","LIEU":"Parc Saint-Maurice","MOIS":"AOÛT","TYPE":"AOÛT : Fêtes et festivals","DATE1":"8, 15, 22, 29 juillet et 5, 12 août 2017 (à 15h)","Annee":2017},"geometry":{"type":"Point","coordinates":[-72.74160759150537,46.53808432767501]}},{"type":"Feature","properties":{"FID":56,"OBJECTID":176,"NOM":"Blizzart et culture","LIEU":"Maison Francis-Brisson","MOIS":"NOVEMBRE","TYPE":"NOVEMBRE : Arts et culture","DATE1":"17 au 19 novembre 2017","Annee":2017},"geometry":{"type":"Point","coordinates":[-72.68166016857147,46.620300661950914]}},{"type":"Feature","properties":{"FID":57,"OBJECTID":220,"NOM":"Espace Show","LIEU":"Parc Saint-Maurice","MOIS":"JUILLET","TYPE":"JUILLET : Fêtes et festivals","DATE1":"8, 15, 22, 29 juillet et 5, 12 août 2017 (à 15h)","Annee":2017},"geometry":{"type":"Point","coordinates":[-72.74160759150537,46.53808432767501]}},{"type":"Feature","properties":{"FID":58,"OBJECTID":223,"NOM":"Coupe Subway - Tournoi provincial dek-hockey","LIEU":"Parc Antoine-Saint-Onge","MOIS":"JUILLET","TYPE":"JUILLET : Sports et loisirs","DATE1":"7 au 9 juillet 2017","Annee":2017},"geometry":{"type":"Point","coordinates":[-72.74621744904354,46.558328095348315]}},{"type":"Feature","properties":{"FID":59,"OBJECTID":257,"NOM":"Rendez-vous de la Promenade","LIEU":"Promenade du Capitaine-Jos-Veilleux","MOIS":"SEPTEMBRE","TYPE":"SEPTEMBRE : Arts et culture","DATE1":"Du jeudi au samedi de 19h à 22h (1 juin au 2 septembre 2017)","Annee":2017},"geometry":{"type":"Point","coordinates":[-72.75286997022577,46.52931308310142]}},{"type":"Feature","properties":{"FID":60,"OBJECTID":259,"NOM":"Salon de l'emploi - Formation et entrepreneuriat","LIEU":"Amphithéâtre municipal","MOIS":"OCTOBRE","TYPE":"OCTOBRE : Vie communautaire","DATE1":"4 octobre 2017","Annee":2017},"geometry":{"type":"Point","coordinates":[-72.74419195504454,46.54715400814138]}},{"type":"Feature","properties":{"FID":61,"OBJECTID":265,"NOM":"Assemblée provinciale des témoins de Jéhovah","LIEU":"Amphithéâtre municipal","MOIS":"JUIN","TYPE":"JUIN : Vie communautaire","DATE1":"30 juin au 2 juillet 2017","Annee":2017},"geometry":{"type":"Point","coordinates":[-72.74417250578392,46.547766070139616]}},{"type":"Feature","properties":{"FID":62,"OBJECTID":266,"NOM":"Coupe Junior Banque Nationale","LIEU":"Parc Saint-Maurice","MOIS":"AOÛT","TYPE":"AOÛT : Sports et loisirs","DATE1":"3 au 5 août 2017","Annee":2017},"geometry":{"type":"Point","coordinates":[-72.74288812256155,46.538402542852104]}},{"type":"Feature","properties":{"FID":63,"OBJECTID":267,"NOM":"Coupe Junior Banque Nationale","LIEU":"Val-Mauricie","MOIS":"AOÛT","TYPE":"AOÛT : Sports et loisirs","DATE1":"3 au 5 août 2017","Annee":2017},"geometry":{"type":"Point","coordinates":[-72.75904362543709,46.52233932866679]}},{"type":"Feature","properties":{"FID":64,"OBJECTID":268,"NOM":"Coupe Junior Banque Nationale","LIEU":"Parc multisport Réal-Dufresne","MOIS":"AOÛT","TYPE":"AOÛT : Sports et loisirs","DATE1":"3 au 5 août 2017","Annee":2017},"geometry":{"type":"Point","coordinates":[-72.74273877807472,46.5137820338448]}},{"type":"Feature","properties":{"FID":65,"OBJECTID":271,"NOM":"Coupe Canada en canoe-kayak","LIEU":"Boulevard du Capitaine-Jos-Veilleux","MOIS":"JUILLET","TYPE":"JUILLET : Sports et loisirs","DATE1":"8-9 juillet 2017","Annee":2017},"geometry":{"type":"Point","coordinates":[-72.75346718337707,46.52936141873317]}},{"type":"Feature","properties":{"FID":66,"OBJECTID":274,"NOM":"Festival interglacial de la BD et des univers givrés","LIEU":"Centre d'entrepreneuriat Alphonse-Desjardins Shawinigan","MOIS":"FÉVRIER","TYPE":"FÉVRIER : Arts et culture","DATE1":"10 au 12 février 2017","Annee":2017},"geometry":{"type":"Point","coordinates":[-72.75080335565804,46.54588272998465]}},{"type":"Feature","properties":{"FID":67,"OBJECTID":282,"NOM":"Tournoi pee-wee Shawinigan","LIEU":"Aréna Grand-Mère","MOIS":"DÉCEMBRE","TYPE":"DÉCEMBRE : Sports et loisirs","DATE1":"20 novembre au 3 décembre 2017","Annee":2017},"geometry":{"type":"Point","coordinates":[-72.68929698893817,46.61206867396514]}},{"type":"Feature","properties":{"FID":68,"OBJECTID":275,"NOM":"Assemblée provinciale des témoins de Jéhovah","LIEU":"Amphithéâtre municipal","MOIS":"JUILLET","TYPE":"JUILLET : Vie communautaire","DATE1":"30 juin au 2 juillet 2017","Annee":2017},"geometry":{"type":"Point","coordinates":[-72.74429804670432,46.54786115928259]}},{"type":"Feature","properties":{"FID":69,"OBJECTID":276,"NOM":"Espace Show","LIEU":"Place des Canotiers","MOIS":"AOÛT","TYPE":"AOÛT : Fêtes et festivals","DATE1":"9, 16, 23, 30 juillet et 6, 13 août 2017 (à 15h)","Annee":2017},"geometry":{"type":"Point","coordinates":[-72.75367516026857,46.53990145687462]}},{"type":"Feature","properties":{"FID":70,"OBJECTID":277,"NOM":"Espace Show","LIEU":"Place des Canotiers","MOIS":"JUILLET","TYPE":"JUILLET : Fêtes et festivals","DATE1":"9, 16, 23, 30 juillet et 6, 13 août 2017 (à 15h)","Annee":2017},"geometry":{"type":"Point","coordinates":[-72.75367516026857,46.53990145687462]}},{"type":"Feature","properties":{"FID":71,"OBJECTID":278,"NOM":"Espace Show","LIEU":"Place des Canotiers","MOIS":"AOÛT","TYPE":"AOÛT : Fêtes et festivals","DATE1":"913, 20, 27 juillet et 3, 10, 17 août 2017 (à 19h)","Annee":2017},"geometry":{"type":"Point","coordinates":[-72.73671794112828,46.614717118468384]}},{"type":"Feature","properties":{"FID":72,"OBJECTID":279,"NOM":"Espace Show","LIEU":"Place des Canotiers","MOIS":"JUILLET","TYPE":"JUILLET : Fêtes et festivals","DATE1":"913, 20, 27 juillet et 3, 10, 17 août 2017 (à 19h)","Annee":2017},"geometry":{"type":"Point","coordinates":[-72.73671794112828,46.614717118468384]}}]}